{
    "type": "FeatureCollection",
    "features": [
        {
            "type": "Feature",
            "properties": {
                "Number": "233",
                "Name": "233_SAN_JUAN_BOSCO_SANTIAGO_RUSIÑOL",
                "Address": "San Juan Bosco - Santiago Rusiñol"
            },
            "geometry": {
                "type": "Point",
                "coordinates": [
                    -0.369528093405798,
                    39.497128187401
                ]
            }
        },
        {
            "type": "Feature",
            "properties": {
                "Number": "211",
                "Name": "211_CALLE_FRAY_JUNÍPERO_SERRA_ESQ_CALLE_VALL_D'UIX",
                "Address": "Fray Junípero Serra - Vall d'Uixó"
            },
            "geometry": {
                "type": "Point",
                "coordinates": [
                    -0.397848157697943,
                    39.45869404863428
                ]
            }
        },
        {
            "type": "Feature",
            "properties": {
                "Number": "98",
                "Name": "098_SANTOS JUSTO Y PASTOR",
                "Address": "Justo y Pastor - Duque de Gaeta"
            },
            "geometry": {
                "type": "Point",
                "coordinates": [
                    -0.348533015740284,
                    39.46964810153237
                ]
            }
        },
        {
            "type": "Feature",
            "properties": {
                "Number": "116",
                "Name": "116_C/ DR. VICENTE ZARAGOZA",
                "Address": "Doctor Vicente Zaragozá - Ramón Asensio"
            },
            "geometry": {
                "type": "Point",
                "coordinates": [
                    -0.357652050365347,
                    39.483221144341215
                ]
            }
        },
        {
            "type": "Feature",
            "properties": {
                "Number": "21",
                "Name": "021_JUAN_LLORENS_29",
                "Address": "Juan Llorens - Literato Gabriel Miró"
            },
            "geometry": {
                "type": "Point",
                "coordinates": [
                    -0.390305142409828,
                    39.4723390971218
                ]
            }
        },
        {
            "type": "Feature",
            "properties": {
                "Number": "193",
                "Name": "193_CALLE_CARTEROS",
                "Address": "Uruguay - Carteros"
            },
            "geometry": {
                "type": "Point",
                "coordinates": [
                    -0.38680912265075,
                    39.4551140401216
                ]
            }
        },
        {
            "type": "Feature",
            "properties": {
                "Number": "99",
                "Name": "099_AVDA. BLASCO IBAÑEZ 8",
                "Address": "Blasco Ibañez - Pintor José Mongrell"
            },
            "geometry": {
                "type": "Point",
                "coordinates": [
                    -0.34057499279659,
                    39.471312109714646
                ]
            }
        },
        {
            "type": "Feature",
            "properties": {
                "Number": "246",
                "Name": "246_AVDA_TRES_CRUCES_ENTRADA_HOSPITAL_GENERAL",
                "Address": "Tres Cruces - Hospital General"
            },
            "geometry": {
                "type": "Point",
                "coordinates": [
                    -0.406600189533111,
                    39.46905808079698
                ]
            }
        },
        {
            "type": "Feature",
            "properties": {
                "Number": "159",
                "Name": "159_FRANCISCO CUBELLS",
                "Address": "Francisco Cubells - San José de la Vega"
            },
            "geometry": {
                "type": "Point",
                "coordinates": [
                    -0.334812971276553,
                    39.46341708497314
                ]
            }
        },
        {
            "type": "Feature",
            "properties": {
                "Number": "134",
                "Name": "134_C/ MAXIMILIANO THOUS",
                "Address": "Maximiliano Thous - Luz Casanova"
            },
            "geometry": {
                "type": "Point",
                "coordinates": [
                    -0.373430100012801,
                    39.48762415410862
                ]
            }
        },
        {
            "type": "Feature",
            "properties": {
                "Number": "235",
                "Name": "235_CONDE_DE_TORREFIEL_CECILIO_PLA",
                "Address": "Conde Torrefiel - Cecilio Plá"
            },
            "geometry": {
                "type": "Point",
                "coordinates": [
                    -0.377294117154526,
                    39.49801318789519
                ]
            }
        },
        {
            "type": "Feature",
            "properties": {
                "Number": "172",
                "Name": "172_AVENIDA_PIO_XII",
                "Address": "Pío XII - Campanar"
            },
            "geometry": {
                "type": "Point",
                "coordinates": [
                    -0.39343615667867,
                    39.481430126787565
                ]
            }
        },
        {
            "type": "Feature",
            "properties": {
                "Number": "274",
                "Name": "274_MANUEL_ANDRES_CASTELL_DE_POLOP",
                "Address": "San Francisco de Paula - Castell de Pop"
            },
            "geometry": {
                "type": "Point",
                "coordinates": [
                    -0.333278958357397,
                    39.448038033633594
                ]
            }
        },
        {
            "type": "Feature",
            "properties": {
                "Number": "217",
                "Name": "217_CALLE_9_DE_OCTUBRE_ESQ_CALLE_PINTOR_STOLZ",
                "Address": "Pintor Stolz - Nueve de Octubre"
            },
            "geometry": {
                "type": "Point",
                "coordinates": [
                    -0.404687184457659,
                    39.47029608559258
                ]
            }
        },
        {
            "type": "Feature",
            "properties": {
                "Number": "1",
                "Name": "001_GUILLEN_DE_CASTRO",
                "Address": "Guillem de Castro (Beneficiencia)"
            },
            "geometry": {
                "type": "Point",
                "coordinates": [
                    -0.383541125260106,
                    39.47817811900004
                ]
            }
        },
        {
            "type": "Feature",
            "properties": {
                "Number": "48",
                "Name": "48_AVDA. ANTONIO FERRANDIS",
                "Address": "Antonio Ferrandis - General Urrutia"
            },
            "geometry": {
                "type": "Point",
                "coordinates": [
                    -0.358643429344464,
                    39.450775142005085
                ]
            }
        },
        {
            "type": "Feature",
            "properties": {
                "Number": "122",
                "Name": "122_C_MÚSICO HIPÓLITO MARTÍNEZ",
                "Address": "Músico Hipólito Martínez - Diógenes López Mecho"
            },
            "geometry": {
                "type": "Point",
                "coordinates": [
                    -0.354157040555065,
                    39.48445314961921
                ]
            }
        },
        {
            "type": "Feature",
            "properties": {
                "Number": "82",
                "Name": "082_GUILLEN_DE_CASTRO_TORRES_DE_QUART",
                "Address": "Guillem de Castro (Torres de Quart)"
            },
            "geometry": {
                "type": "Point",
                "coordinates": [
                    -0.384005125495213,
                    39.47602411158443
                ]
            }
        },
        {
            "type": "Feature",
            "properties": {
                "Number": "165",
                "Name": "165_PAVIA 2",
                "Address": "Pavía - Espadán"
            },
            "geometry": {
                "type": "Point",
                "coordinates": [
                    -0.324660945171817,
                    39.47137711508329
                ]
            }
        },
        {
            "type": "Feature",
            "properties": {
                "Number": "106",
                "Name": "106_AVDA. DE LOS NARANJOS",
                "Address": "Albalat dels Tarongers - Professor Ernest Lluch"
            },
            "geometry": {
                "type": "Point",
                "coordinates": [
                    -0.341477998410525,
                    39.47671212762051
                ]
            }
        },
        {
            "type": "Feature",
            "properties": {
                "Number": "47",
                "Name": "47_AVDA. AUTOPISTA DEL SALER",
                "Address": "Autopista del Saler - Puente Monteolivete"
            },
            "geometry": {
                "type": "Point",
                "coordinates": [
                    -0.355509029538065,
                    39.45648005487459
                ]
            }
        },
        {
            "type": "Feature",
            "properties": {
                "Number": "169",
                "Name": "169_PAVIA 4",
                "Address": "Pavía (Instituto Isabel de Villena)"
            },
            "geometry": {
                "type": "Point",
                "coordinates": [
                    -0.324735949373236,
                    39.478753139905066
                ]
            }
        },
        {
            "type": "Feature",
            "properties": {
                "Number": "49",
                "Name": "49_C/ RICARDO MUÑOZ SUAY",
                "Address": "Ricardo Muñoz Suay - María José Victoria Fuster (C.C. El Saler)"
            },
            "geometry": {
                "type": "Point",
                "coordinates": [
                    -0.35720111550767,
                    39.452954722176685
                ]
            }
        },
        {
            "type": "Feature",
            "properties": {
                "Number": "121",
                "Name": "121_C_MURTA",
                "Address": "Murta - Sant Eperit"
            },
            "geometry": {
                "type": "Point",
                "coordinates": [
                    -0.358862055563278,
                    39.48615015382428
                ]
            }
        },
        {
            "type": "Feature",
            "properties": {
                "Number": "143",
                "Name": "143_AVDA. MENENDEZ PIDAL",
                "Address": "Pio XII - Menéndez PIdal (Nuevo Centro)"
            },
            "geometry": {
                "type": "Point",
                "coordinates": [
                    -0.391027148421504,
                    39.47950512106764
                ]
            }
        },
        {
            "type": "Feature",
            "properties": {
                "Number": "204",
                "Name": "204_AVDA_GENERAL_AVILES",
                "Address": "Corts Valencianes - General Avilés"
            },
            "geometry": {
                "type": "Point",
                "coordinates": [
                    -0.396678168748875,
                    39.48581114052686
                ]
            }
        },
        {
            "type": "Feature",
            "properties": {
                "Number": "190",
                "Name": "190_CTRA_MALILLA",
                "Address": "Cra. Malilla - Bulevar Sur"
            },
            "geometry": {
                "type": "Point",
                "coordinates": [
                    -0.380387098491455,
                    39.446050011610645
                ]
            }
        },
        {
            "type": "Feature",
            "properties": {
                "Number": "52",
                "Name": "52_C/ LUIS GARCIA BERLANGA",
                "Address": "Luis García Berlanga Martí - Menorca"
            },
            "geometry": {
                "type": "Point",
                "coordinates": [
                    -0.346431002074561,
                    39.45600205620843
                ]
            }
        },
        {
            "type": "Feature",
            "properties": {
                "Number": "234",
                "Name": "234_PLAZA MUSICO_ESPI_JOSE_ESTEVE",
                "Address": "Plaza Músico Espí"
            },
            "geometry": {
                "type": "Point",
                "coordinates": [
                    -0.373735105660714,
                    39.49646718382403
                ]
            }
        },
        {
            "type": "Feature",
            "properties": {
                "Number": "198",
                "Name": "198_CALLE_FONTANARS_DELS_AFORINS",
                "Address": "Fontanars dels Aforins - Vall d'Uixó"
            },
            "geometry": {
                "type": "Point",
                "coordinates": [
                    -0.3954071515343,
                    39.460848056694466
                ]
            }
        },
        {
            "type": "Feature",
            "properties": {
                "Number": "3",
                "Name": "003_PLAZA_MUSICO_LOPEZ_CHAVARRI",
                "Address": "Plaza del Musico López Chavarri"
            },
            "geometry": {
                "type": "Point",
                "coordinates": [
                    -0.38037911504075,
                    39.47680311538018
                ]
            }
        },
        {
            "type": "Feature",
            "properties": {
                "Number": "76",
                "Name": "076_CAMPOAMOR II",
                "Address": "Campoamor - Músico Ginés"
            },
            "geometry": {
                "type": "Point",
                "coordinates": [
                    -0.343552001034738,
                    39.4700511045018
                ]
            }
        },
        {
            "type": "Feature",
            "properties": {
                "Number": "84",
                "Name": "84_SERRERIA_ESQ_PINTOR FERRER CALATAYUD",
                "Address": "Serrería"
            },
            "geometry": {
                "type": "Point",
                "coordinates": [
                    39.46726209778759,
                    67
                ]
            }
        },
        {
            "type": "Feature",
            "properties": {
                "Number": "268",
                "Name": "268_PZA_LUIS_CANO_5",
                "Address": "Plaza Luis Cano"
            },
            "geometry": {
                "type": "Point",
                "coordinates": [
                    39.50141318615774,
                    5
                ]
            }
        },
        {
            "type": "Feature",
            "properties": {
                "Number": "247",
                "Name": "247_AVDA_TRES_CRUCES_MUSICO_AYLLON",
                "Address": "Tres Cruces - Músico Ayllón"
            },
            "geometry": {
                "type": "Point",
                "coordinates": [
                    -0.405664185821979,
                    39.46737807542721
                ]
            }
        },
        {
            "type": "Feature",
            "properties": {
                "Number": "31",
                "Name": "031_CALLE SALAMANCA",
                "Address": "Salamanca - Conde Altea"
            },
            "geometry": {
                "type": "Point",
                "coordinates": [
                    -0.365119064198398,
                    39.46733308836422
                ]
            }
        },
        {
            "type": "Feature",
            "properties": {
                "Number": "255",
                "Name": "255_SAN_VICENTE_MARTIR_TOMAS_DE_VILLAROYA",
                "Address": "Tomas de Villarroya - San Vicente"
            },
            "geometry": {
                "type": "Point",
                "coordinates": [
                    -0.386120116565009,
                    39.44767101522146
                ]
            }
        },
        {
            "type": "Feature",
            "properties": {
                "Number": "41",
                "Name": "41_AVDA. GRAL. URRUTIA",
                "Address": "General Urrutia - Granada"
            },
            "geometry": {
                "type": "Point",
                "coordinates": [
                    -0.364867058884755,
                    39.458880059935595
                ]
            }
        },
        {
            "type": "Feature",
            "properties": {
                "Number": "26",
                "Name": "026_CALLE_SAN_JOSE_DE_CALASANZ",
                "Address": "San José de Calasanz - Salas Quiroga"
            },
            "geometry": {
                "type": "Point",
                "coordinates": [
                    -0.386143126606345,
                    39.46616307762487
                ]
            }
        },
        {
            "type": "Feature",
            "properties": {
                "Number": "12",
                "Name": "012_CALLE_MINYANA",
                "Address": "Miñana - Poeta Querol"
            },
            "geometry": {
                "type": "Point",
                "coordinates": [
                    -0.374099093197231,
                    39.47119409848577
                ]
            }
        },
        {
            "type": "Feature",
            "properties": {
                "Number": "179",
                "Name": "179_AVENIDA_DE_LA_PLATA_45",
                "Address": "Av. de la Plata - Zapadores"
            },
            "geometry": {
                "type": "Point",
                "coordinates": [
                    -0.366517061973888,
                    39.455440047796785
                ]
            }
        },
        {
            "type": "Feature",
            "properties": {
                "Number": "81",
                "Name": "081_DOCTOR FORNOS",
                "Address": "Micer Mascó - Rodriguez Fornos"
            },
            "geometry": {
                "type": "Point",
                "coordinates": [
                    -0.361069056238335,
                    39.47509611584928
                ]
            }
        },
        {
            "type": "Feature",
            "properties": {
                "Number": "28",
                "Name": "028_NAVARRO REVERTE",
                "Address": "Navarro Reverter - Grabador Esteve"
            },
            "geometry": {
                "type": "Point",
                "coordinates": [
                    -0.367842074631205,
                    39.47155010170615
                ]
            }
        },
        {
            "type": "Feature",
            "properties": {
                "Number": "131",
                "Name": "131_C/ ALBORAYA",
                "Address": "Alboraya - Flora"
            },
            "geometry": {
                "type": "Point",
                "coordinates": [
                    -0.371254089734112,
                    39.48062113119549
                ]
            }
        },
        {
            "type": "Feature",
            "properties": {
                "Number": "112",
                "Name": "112_AVDA. DE LOS NARANJOS",
                "Address": "Manuel Broseta i Pont - Naranjos"
            },
            "geometry": {
                "type": "Point",
                "coordinates": [
                    -0.342366002058633,
                    39.47854813352072
                ]
            }
        },
        {
            "type": "Feature",
            "properties": {
                "Number": "243",
                "Name": "243_ALBACETE_ESQ_MALUQUER",
                "Address": "Albacete - Maluquer"
            },
            "geometry": {
                "type": "Point",
                "coordinates": [
                    -0.384633120260506,
                    39.46278806672407
                ]
            }
        },
        {
            "type": "Feature",
            "properties": {
                "Number": "265",
                "Name": "265_C_ALCASSER_POETA_ALBERTO_LISTA",
                "Address": "Alcasser - Poeta Alberto Lista"
            },
            "geometry": {
                "type": "Point",
                "coordinates": [
                    -0.408208195369257,
                    39.470941086635776
                ]
            }
        },
        {
            "type": "Feature",
            "properties": {
                "Number": "238",
                "Name": "238_SAN_JOSE_ARTESANO_FRANCISCO_MOROTE_GREUS",
                "Address": "San Jose Artesano - Francisco Morote Greus"
            },
            "geometry": {
                "type": "Point",
                "coordinates": [
                    -0.394474168343446,
                    39.497417180383685
                ]
            }
        },
        {
            "type": "Feature",
            "properties": {
                "Number": "63",
                "Name": "063_AVDA. DEL PUERTO I",
                "Address": "Av Puerto 19 (Telefónica)"
            },
            "geometry": {
                "type": "Point",
                "coordinates": [
                    -0.358505044597536,
                    39.467747091898616
                ]
            }
        },
        {
            "type": "Feature",
            "properties": {
                "Number": "56",
                "Name": "56_AVDA. DE FRANCIA",
                "Address": "Francia - Menorca"
            },
            "geometry": {
                "type": "Point",
                "coordinates": [
                    -0.344495997567289,
                    39.45838906488428
                ]
            }
        },
        {
            "type": "Feature",
            "properties": {
                "Number": "227",
                "Name": "227_CALLE_SAN_CLEMENTE_ENTRA_HOSPITAL_ARNAU_VILANO",
                "Address": "San Clemente - Hospital Arnau de Vilanova"
            },
            "geometry": {
                "type": "Point",
                "coordinates": [
                    -0.403022190134151,
                    39.490216153353934
                ]
            }
        },
        {
            "type": "Feature",
            "properties": {
                "Number": "232",
                "Name": "232_SAN_VICENTE_DE_PAUL_SANTIAGO_RUSIÑOL",
                "Address": "San Vicente Paul - Santiago Rusiñol"
            },
            "geometry": {
                "type": "Point",
                "coordinates": [
                    -0.365844081019678,
                    39.49461218010229
                ]
            }
        },
        {
            "type": "Feature",
            "properties": {
                "Number": "115",
                "Name": "115_C/ DR. VICENTE ZARAGOZA",
                "Address": "Cataluña - Doctor Vicente Zaragozá"
            },
            "geometry": {
                "type": "Point",
                "coordinates": [
                    -0.352239033238509,
                    39.481530140385686
                ]
            }
        },
        {
            "type": "Feature",
            "properties": {
                "Number": "215",
                "Name": "215_CALLE_MUSICO_AYLLON_ESQ_CALLE_FRANCISCO_DOLZ",
                "Address": "Músico Ayllón - Francisco Dolz"
            },
            "geometry": {
                "type": "Point",
                "coordinates": [
                    -0.39683915840866,
                    39.46563907240366
                ]
            }
        },
        {
            "type": "Feature",
            "properties": {
                "Number": "261",
                "Name": "261_PZA_XUQUER_ESQ_VINALOPO",
                "Address": "Plaza Xuquer - Vinalopó"
            },
            "geometry": {
                "type": "Point",
                "coordinates": [
                    -0.350468025305313,
                    39.47664412448885
                ]
            }
        },
        {
            "type": "Feature",
            "properties": {
                "Number": "102",
                "Name": "102_AVDA.RAMON LLUL",
                "Address": "Ramón Llull - Serpis"
            },
            "geometry": {
                "type": "Point",
                "coordinates": [
                    -0.346811013895548,
                    39.47580112282824
                ]
            }
        },
        {
            "type": "Feature",
            "properties": {
                "Number": "32",
                "Name": "032_C/ CONDE DE ALTEA",
                "Address": "Conde Altea - Almirante Cadarso"
            },
            "geometry": {
                "type": "Point",
                "coordinates": [
                    -0.368338073115823,
                    39.4659740827401
                ]
            }
        },
        {
            "type": "Feature",
            "properties": {
                "Number": "79",
                "Name": "079_AVDA. ARAGON II",
                "Address": "Aragón - Ernesto Ferrer"
            },
            "geometry": {
                "type": "Point",
                "coordinates": [
                    -0.357333043778256,
                    39.47274710913562
                ]
            }
        },
        {
            "type": "Feature",
            "properties": {
                "Number": "8",
                "Name": "008_PLAZA_DE_LA_REINA_ESQUINA_CALLE_DEL_MAR",
                "Address": "Plaza de la Reina - Mar"
            },
            "geometry": {
                "type": "Point",
                "coordinates": [
                    -0.375175098086736,
                    39.47428810857441
                ]
            }
        },
        {
            "type": "Feature",
            "properties": {
                "Number": "237",
                "Name": "237_LEVANTE_UD_AVDA_ECUADOR",
                "Address": "Levante U.D. - Ecuador"
            },
            "geometry": {
                "type": "Point",
                "coordinates": [
                    -0.391129156875508,
                    39.4947261723789
                ]
            }
        },
        {
            "type": "Feature",
            "properties": {
                "Number": "108",
                "Name": "108_ LUIS PEIXO",
                "Address": "Luís Peixó 20"
            },
            "geometry": {
                "type": "Point",
                "coordinates": [
                    -0.333702973476317,
                    39.47365411982902
                ]
            }
        },
        {
            "type": "Feature",
            "properties": {
                "Number": "67",
                "Name": "067_JUAN VERDEGUER",
                "Address": "Juan Verdeguer - Toneleros"
            },
            "geometry": {
                "type": "Point",
                "coordinates": [
                    -0.336888975014669,
                    39.45882806883267
                ]
            }
        },
        {
            "type": "Feature",
            "properties": {
                "Number": "120",
                "Name": "120_C_DR VICENTE ZARAGOZA",
                "Address": "Doctor Vicente Zaragozá - Emilio Baró"
            },
            "geometry": {
                "type": "Point",
                "coordinates": [
                    -0.362137064678155,
                    39.484848148381595
                ]
            }
        },
        {
            "type": "Feature",
            "properties": {
                "Number": "19",
                "Name": "019_JUAN_LLORENS",
                "Address": "Juan Llorens - Quart"
            },
            "geometry": {
                "type": "Point",
                "coordinates": [
                    -0.391681147609965,
                    39.47433710342028
                ]
            }
        },
        {
            "type": "Feature",
            "properties": {
                "Number": "25",
                "Name": "025_CALLE_DEL_ALBERIC",
                "Address": "Alberique"
            },
            "geometry": {
                "type": "Point",
                "coordinates": [
                    39.46769708197544,
                    18
                ]
            }
        },
        {
            "type": "Feature",
            "properties": {
                "Number": "178",
                "Name": "178_CALLE_REIG_GENOVES",
                "Address": "Reig Genovés - Ramón Contreras Mongrell"
            },
            "geometry": {
                "type": "Point",
                "coordinates": [
                    -0.37059709396399,
                    39.492184170392264
                ]
            }
        },
        {
            "type": "Feature",
            "properties": {
                "Number": "94",
                "Name": "094_AVDA. BLASCO IBAÑEZ 5",
                "Address": "Blasco Ibañez - Clariano"
            },
            "geometry": {
                "type": "Point",
                "coordinates": [
                    -0.351674028220146,
                    39.47534611972441
                ]
            }
        },
        {
            "type": "Feature",
            "properties": {
                "Number": "140",
                "Name": "140_AVENIDA_CAMPANAR",
                "Address": "Campanar - Nicasio Benlloch"
            },
            "geometry": {
                "type": "Point",
                "coordinates": [
                    -0.38969114895134,
                    39.48797215005971
                ]
            }
        },
        {
            "type": "Feature",
            "properties": {
                "Number": "128",
                "Name": "128_C/ ALFAUIR",
                "Address": "Alfahuir - Peñiscola"
            },
            "geometry": {
                "type": "Point",
                "coordinates": [
                    -0.367635083238739,
                    39.488734159713275
                ]
            }
        },
        {
            "type": "Feature",
            "properties": {
                "Number": "221",
                "Name": "221_AVDA_MANUEL_DE_FALLA_ESQ_CALLE_HERNANDEZ_LAZAR",
                "Address": "Manuel de Falla - Hernández Lázaro"
            },
            "geometry": {
                "type": "Point",
                "coordinates": [
                    -0.40294418188015,
                    39.47523810283483
                ]
            }
        },
        {
            "type": "Feature",
            "properties": {
                "Number": "17",
                "Name": "017_ESTACION RENFE I",
                "Address": "Xátiva - Bailén (Estación del Norte)"
            },
            "geometry": {
                "type": "Point",
                "coordinates": [
                    -0.377350100922523,
                    39.467436084759534
                ]
            }
        },
        {
            "type": "Feature",
            "properties": {
                "Number": "256",
                "Name": "256_AVDA_TRES_FORQUES_TURIS",
                "Address": "Tres Forques - Turís"
            },
            "geometry": {
                "type": "Point",
                "coordinates": [
                    -0.392326143951058,
                    39.4639310680958
                ]
            }
        },
        {
            "type": "Feature",
            "properties": {
                "Number": "138",
                "Name": "138_SAN_PANCRACIO",
                "Address": "San Pancracio - Periodista Llorente"
            },
            "geometry": {
                "type": "Point",
                "coordinates": [
                    -0.384313132924836,
                    39.48815815241352
                ]
            }
        },
        {
            "type": "Feature",
            "properties": {
                "Number": "34",
                "Name": "34_AVDA. ANTIGUO REINO DE VALENCIA",
                "Address": "Regne de Valencia - Doctor Sumsi"
            },
            "geometry": {
                "type": "Point",
                "coordinates": [
                    -0.370052077239064,
                    39.46409007583113
                ]
            }
        },
        {
            "type": "Feature",
            "properties": {
                "Number": "141",
                "Name": "141_C/ GREGORIO GEA (PEATONAL)",
                "Address": "Gregorio Gea - Padre Ferris"
            },
            "geometry": {
                "type": "Point",
                "coordinates": [
                    -0.385247133088568,
                    39.48323613551247
                ]
            }
        },
        {
            "type": "Feature",
            "properties": {
                "Number": "96",
                "Name": "096_AVDA. BLASCO IBAÑEZ 6",
                "Address": "Blasco Ibañez - Yecla"
            },
            "geometry": {
                "type": "Point",
                "coordinates": [
                    -0.348305017144382,
                    39.47352211466433
                ]
            }
        },
        {
            "type": "Feature",
            "properties": {
                "Number": "151",
                "Name": "151_JERONIMO MONSORIU",
                "Address": "Jerónimo Monsoriu - Alcalde Cano Coloma"
            },
            "geometry": {
                "type": "Point",
                "coordinates": [
                    -0.337207979114133,
                    39.46463708827678
                ]
            }
        },
        {
            "type": "Feature",
            "properties": {
                "Number": "258",
                "Name": "258_PINTOR_RAFAEL_SOLVES_ESQ_JOSE_SOTO_MICO",
                "Address": "Pintor Rafael Solves - Jose Soto Mico"
            },
            "geometry": {
                "type": "Point",
                "coordinates": [
                    -0.38922812163005,
                    39.43979598762512
                ]
            }
        },
        {
            "type": "Feature",
            "properties": {
                "Number": "58",
                "Name": "058_PLAZA DE ESPAÑA",
                "Address": "Plaza España"
            },
            "geometry": {
                "type": "Point",
                "coordinates": [
                    -0.381677113224894,
                    39.46618607914484
                ]
            }
        },
        {
            "type": "Feature",
            "properties": {
                "Number": "70",
                "Name": "70_CALLE_COLON_ESQ_ALMIRANTE_ROGER_DE_LAURIA",
                "Address": "Colón"
            },
            "geometry": {
                "type": "Point",
                "coordinates": [
                    39.469358093050445,
                    27
                ]
            }
        },
        {
            "type": "Feature",
            "properties": {
                "Number": "263",
                "Name": "263_PADRE ESTEBAN_PERNET_ANTES_CASA_MISERICORDIA",
                "Address": "Padre Esteban Pernet - Casa Misericordia"
            },
            "geometry": {
                "type": "Point",
                "coordinates": [
                    -0.409735197841415,
                    39.46701107287583
                ]
            }
        },
        {
            "type": "Feature",
            "properties": {
                "Number": "118",
                "Name": "118_C/ DR. GOMEZ FERRER",
                "Address": "Gómez Ferrer - Álvaro de Bazán"
            },
            "geometry": {
                "type": "Point",
                "coordinates": [
                    -0.360507057423573,
                    39.4804341340267
                ]
            }
        },
        {
            "type": "Feature",
            "properties": {
                "Number": "114",
                "Name": "114_ADOLFO SUAREZ",
                "Address": "UPV Informática"
            },
            "geometry": {
                "type": "Point",
                "coordinates": [
                    -0.346682016720988,
                    39.481772142992675
                ]
            }
        },
        {
            "type": "Feature",
            "properties": {
                "Number": "213",
                "Name": "213_CALLE_ARCHIDUQUE_CARLOS_ESQ_CALLE_JOSE_MA_MOR",
                "Address": "Archiduque Carlos - José María Mortes Lerma"
            },
            "geometry": {
                "type": "Point",
                "coordinates": [
                    -0.397063157732616,
                    39.463133063872554
                ]
            }
        },
        {
            "type": "Feature",
            "properties": {
                "Number": "111",
                "Name": "111_COLEGIO MAYOR",
                "Address": "UPV Galileo"
            },
            "geometry": {
                "type": "Point",
                "coordinates": [
                    -0.340651997804929,
                    39.480184139586505
                ]
            }
        },
        {
            "type": "Feature",
            "properties": {
                "Number": "254",
                "Name": "254_AVDA_DR_TOMAS_SALA_CARTEROS",
                "Address": "Doctor Tomás Sala - Carteros"
            },
            "geometry": {
                "type": "Point",
                "coordinates": [
                    -0.39000812823506,
                    39.44768201399717
                ]
            }
        },
        {
            "type": "Feature",
            "properties": {
                "Number": "201",
                "Name": "201_AVDA_PEREZ_GALDOS",
                "Address": "Perez Galdós - Nou Moles"
            },
            "geometry": {
                "type": "Point",
                "coordinates": [
                    -0.393759152416117,
                    39.471680093784954
                ]
            }
        },
        {
            "type": "Feature",
            "properties": {
                "Number": "174",
                "Name": "174_CALLE_MONDUBER",
                "Address": "Monduber - Peset Aleixandre"
            },
            "geometry": {
                "type": "Point",
                "coordinates": [
                    -0.386738140863954,
                    39.48940615584413
                ]
            }
        },
        {
            "type": "Feature",
            "properties": {
                "Number": "77",
                "Name": "77_C/ MOLINELL",
                "Address": "Molinell - Calderón de la Barca"
            },
            "geometry": {
                "type": "Point",
                "coordinates": [
                    -0.365758075579642,
                    39.484941147529945
                ]
            }
        },
        {
            "type": "Feature",
            "properties": {
                "Number": "203",
                "Name": "203_CALLE_REINA_VIOLANTE",
                "Address": "Reina Violante - Escultor García Mas"
            },
            "geometry": {
                "type": "Point",
                "coordinates": [
                    -0.401273181871356,
                    39.48457713488814
                ]
            }
        },
        {
            "type": "Feature",
            "properties": {
                "Number": "167",
                "Name": "167_PAVIA 3",
                "Address": "Pavía - Acequia de la Cadena"
            },
            "geometry": {
                "type": "Point",
                "coordinates": [
                    -0.324700947178956,
                    39.4748761268572
                ]
            }
        },
        {
            "type": "Feature",
            "properties": {
                "Number": "104",
                "Name": "104_ALBALAT DELS TARONGERS",
                "Address": "Albalat dels Tarongers - Paseo Facultades"
            },
            "geometry": {
                "type": "Point",
                "coordinates": [
                    -0.34736601693197,
                    39.47835413125328
                ]
            }
        },
        {
            "type": "Feature",
            "properties": {
                "Number": "110",
                "Name": "110_KISSHOMARU",
                "Address": "UPV Trinquet"
            },
            "geometry": {
                "type": "Point",
                "coordinates": [
                    -0.336770986463246,
                    39.48070814260447
                ]
            }
        },
        {
            "type": "Feature",
            "properties": {
                "Number": "68",
                "Name": "068_AVDA. DEL PUERTO IV",
                "Address": "Av. Puerto - José Aguilar"
            },
            "geometry": {
                "type": "Point",
                "coordinates": [
                    -0.341823991929563,
                    39.46277108052299
                ]
            }
        },
        {
            "type": "Feature",
            "properties": {
                "Number": "155",
                "Name": "155_C/ SALAMANCA",
                "Address": "Salamanca - Reina Doña Germana"
            },
            "geometry": {
                "type": "Point",
                "coordinates": [
                    -0.363169057053421,
                    39.46492108086036
                ]
            }
        },
        {
            "type": "Feature",
            "properties": {
                "Number": "152",
                "Name": "152_C/ LITERATO AZORÍN",
                "Address": "Reina Doña María - Cádiz"
            },
            "geometry": {
                "type": "Point",
                "coordinates": [
                    -0.372796083742631,
                    39.460893064158775
                ]
            }
        },
        {
            "type": "Feature",
            "properties": {
                "Number": "186",
                "Name": "186_CALLE_INGENIERO_JOAQUIN_BENLLOCH",
                "Address": "Benifairó de Valldigna - Joaquín Benlloch"
            },
            "geometry": {
                "type": "Point",
                "coordinates": [
                    -0.374106081983545,
                    39.450359028192096
                ]
            }
        },
        {
            "type": "Feature",
            "properties": {
                "Number": "39",
                "Name": "39_AVDA. PERIS Y VALERO",
                "Address": "Peris y Valero - Cuba"
            },
            "geometry": {
                "type": "Point",
                "coordinates": [
                    -0.374022085762198,
                    39.457822053401024
                ]
            }
        },
        {
            "type": "Feature",
            "properties": {
                "Number": "130",
                "Name": "130_C/ CONVENTO CARMELITAS",
                "Address": "Convento Carmelitas - Alboraya"
            },
            "geometry": {
                "type": "Point",
                "coordinates": [
                    -0.370301088264948,
                    39.48320614021858
                ]
            }
        },
        {
            "type": "Feature",
            "properties": {
                "Number": "107",
                "Name": "107_C/ CAMPILLO ALTO BUEY",
                "Address": "Campillo de Altobuey (Polideportivo)"
            },
            "geometry": {
                "type": "Point",
                "coordinates": [
                    -0.336314982139155,
                    39.47521312423745
                ]
            }
        },
        {
            "type": "Feature",
            "properties": {
                "Number": "273",
                "Name": "273_CALLE_MORAIRA_CALLE_DALT_DE_LA_MAR",
                "Address": "Moraira - Alta del Mar"
            },
            "geometry": {
                "type": "Point",
                "coordinates": [
                    -0.33336295982062,
                    39.450273041140704
                ]
            }
        },
        {
            "type": "Feature",
            "properties": {
                "Number": "147",
                "Name": "147_CALLE_PIE_DE_LA_CRUZ_CALLE_DE_LA_REJA",
                "Address": "Pie de la Cruz - Rejas"
            },
            "geometry": {
                "type": "Point",
                "coordinates": [
                    -0.38029811284559,
                    39.473169103148095
                ]
            }
        },
        {
            "type": "Feature",
            "properties": {
                "Number": "18",
                "Name": "018_COLON II",
                "Address": "Colón 20-22"
            },
            "geometry": {
                "type": "Point",
                "coordinates": [
                    -0.373220088928677,
                    39.46815908853249
                ]
            }
        },
        {
            "type": "Feature",
            "properties": {
                "Number": "119",
                "Name": "119_C/ JAIME ROIG",
                "Address": "Jaime Roig - Bachiller"
            },
            "geometry": {
                "type": "Point",
                "coordinates": [
                    -0.363317066947724,
                    39.48248814004604
                ]
            }
        },
        {
            "type": "Feature",
            "properties": {
                "Number": "164",
                "Name": "164_PAVIA 1",
                "Address": "Pavía - Columbretes"
            },
            "geometry": {
                "type": "Point",
                "coordinates": [
                    -0.324724943771547,
                    39.468428105127856
                ]
            }
        },
        {
            "type": "Feature",
            "properties": {
                "Number": "216",
                "Name": "216_AVDA_DEL_CID_ESQ_CALLE_BURGOS",
                "Address": "Av. del Cid - Burgos"
            },
            "geometry": {
                "type": "Point",
                "coordinates": [
                    -0.399226167293882,
                    39.4688460824582
                ]
            }
        },
        {
            "type": "Feature",
            "properties": {
                "Number": "27",
                "Name": "027_CALLE_SAN_VICENTE_MARTIR_129",
                "Address": "San Vicente Martir - Doctor Vilá Barberá"
            },
            "geometry": {
                "type": "Point",
                "coordinates": [
                    -0.381942112481819,
                    39.46333006942278
                ]
            }
        },
        {
            "type": "Feature",
            "properties": {
                "Number": "72",
                "Name": "072_RAMIRO MAETZU",
                "Address": "Ramiro de Maeztu - Peris Brell"
            },
            "geometry": {
                "type": "Point",
                "coordinates": [
                    -0.346399008039668,
                    39.46721209400214
                ]
            }
        },
        {
            "type": "Feature",
            "properties": {
                "Number": "207",
                "Name": "207_CALLE_MILLARES_ESQ_CALLE_FEDERICO_GARCA_LORCA",
                "Address": "Giorgeta"
            },
            "geometry": {
                "type": "Point",
                "coordinates": [
                    39.455361042514035,
                    64
                ]
            }
        },
        {
            "type": "Feature",
            "properties": {
                "Number": "239",
                "Name": "239_LA_FLORISTA_TRANVIA_PALACIO_CONGRESOS",
                "Address": "Florista - T4 (Palau de Congressos)"
            },
            "geometry": {
                "type": "Point",
                "coordinates": [
                    -0.400055184833165,
                    39.496953177032466
                ]
            }
        },
        {
            "type": "Feature",
            "properties": {
                "Number": "100",
                "Name": "100_AVDA. BLASCO IBAÑEZ 9",
                "Address": "Blasco Ibañez - Mestre Ripoll"
            },
            "geometry": {
                "type": "Point",
                "coordinates": [
                    -0.33824098596173,
                    39.471602111446835
                ]
            }
        },
        {
            "type": "Feature",
            "properties": {
                "Number": "196",
                "Name": "196_AVDA_GASPAR_AGUILAR",
                "Address": "Jerónimo Muñoz - Gaspar Aguilar"
            },
            "geometry": {
                "type": "Point",
                "coordinates": [
                    -0.388157129082296,
                    39.4595430546337
                ]
            }
        },
        {
            "type": "Feature",
            "properties": {
                "Number": "264",
                "Name": "264_AVDA_CID_ANTES_MARCONI",
                "Address": "Av. del Cid - Marconi"
            },
            "geometry": {
                "type": "Point",
                "coordinates": [
                    -0.414523213347863,
                    39.46912807848099
                ]
            }
        },
        {
            "type": "Feature",
            "properties": {
                "Number": "137",
                "Name": "137_CALLE_ECONOMISTA_GAY",
                "Address": "Economista Gay - Luis Crumiere"
            },
            "geometry": {
                "type": "Point",
                "coordinates": [
                    -0.379987120406342,
                    39.489001156645486
                ]
            }
        },
        {
            "type": "Feature",
            "properties": {
                "Number": "168",
                "Name": "168_AVDA. MALVARROSA",
                "Address": "Malvarrosa - Río Tajo"
            },
            "geometry": {
                "type": "Point",
                "coordinates": [
                    -0.327977958049006,
                    39.47683913241012
                ]
            }
        },
        {
            "type": "Feature",
            "properties": {
                "Number": "248",
                "Name": "248_AVDA_TRES_CRUCES_JOSE_MARIA_MORTES_LERMA",
                "Address": "Tres Cruces - Jose Maria Mortes Lerma"
            },
            "geometry": {
                "type": "Point",
                "coordinates": [
                    -0.40506018155276,
                    39.46280806019345
                ]
            }
        },
        {
            "type": "Feature",
            "properties": {
                "Number": "74",
                "Name": "074_PLAZA SAN FELIPE NERI",
                "Address": "Plaza San Felipe Neri (Mercado Algirós)"
            },
            "geometry": {
                "type": "Point",
                "coordinates": [
                    -0.353825031741888,
                    39.469917100728054
                ]
            }
        },
        {
            "type": "Feature",
            "properties": {
                "Number": "209",
                "Name": "209_AVDA_GASPAR_AGUILAR_ESQ_CALLE_MUSICO_PENELLA",
                "Address": "Gaspar Aguilar - Músico Penella"
            },
            "geometry": {
                "type": "Point",
                "coordinates": [
                    -0.393106139888379,
                    39.45205002773928
                ]
            }
        },
        {
            "type": "Feature",
            "properties": {
                "Number": "7",
                "Name": "007_PZA_DEL_MERCADO_TAULA_DE_CANVIS",
                "Address": "Plaza del Mercado - Taula de Canvis"
            },
            "geometry": {
                "type": "Point",
                "coordinates": [
                    -0.379276110679168,
                    39.474840109114226
                ]
            }
        },
        {
            "type": "Feature",
            "properties": {
                "Number": "97",
                "Name": "097_AVDA. BLASCO IBAÑEZ 7",
                "Address": "Blasco Ibañez 121"
            },
            "geometry": {
                "type": "Point",
                "coordinates": [
                    -0.343223001657882,
                    39.47303611466866
                ]
            }
        },
        {
            "type": "Feature",
            "properties": {
                "Number": "231",
                "Name": "231_CALLE_DE_ALCAÑIZ_ESQ_CALLE_CAMBRILS",
                "Address": "Alcañiz - Cambrils"
            },
            "geometry": {
                "type": "Point",
                "coordinates": [
                    -0.378712119815713,
                    39.495040177417366
                ]
            }
        },
        {
            "type": "Feature",
            "properties": {
                "Number": "123",
                "Name": "123_C_ALBOCACER",
                "Address": "Albocácer - Vinaroz"
            },
            "geometry": {
                "type": "Point",
                "coordinates": [
                    -0.364932074551232,
                    39.487639156890914
                ]
            }
        },
        {
            "type": "Feature",
            "properties": {
                "Number": "46",
                "Name": "46_AVDA. INSTITUTO OBRERO DE VALENCIA",
                "Address": "Pintor Luis Arcas - Inst. Obrero Valenciano"
            },
            "geometry": {
                "type": "Point",
                "coordinates": [
                    -0.358878039093959,
                    39.45547705039899
                ]
            }
        },
        {
            "type": "Feature",
            "properties": {
                "Number": "175",
                "Name": "175_CALLE_JUAN_XXIII",
                "Address": "Juan XXIII - Domingo Gómez"
            },
            "geometry": {
                "type": "Point",
                "coordinates": [
                    -0.382803130751858,
                    39.49255716773316
                ]
            }
        },
        {
            "type": "Feature",
            "properties": {
                "Number": "166",
                "Name": "166_PROGRESO",
                "Address": "Don Vicente Guillot - Progreso"
            },
            "geometry": {
                "type": "Point",
                "coordinates": [
                    -0.328901958917283,
                    39.47331712024639
                ]
            }
        },
        {
            "type": "Feature",
            "properties": {
                "Number": "53",
                "Name": "53_C/ LUIS GARCIA BERLANGA",
                "Address": "Alameda - Pintor Maella"
            },
            "geometry": {
                "type": "Point",
                "coordinates": [
                    -0.348230007860048,
                    39.456732058086
                ]
            }
        },
        {
            "type": "Feature",
            "properties": {
                "Number": "271",
                "Name": "271_CALLE_SALVADOR_CERVERÓ_CALLE_CARLOS_CORTINA",
                "Address": "Salvador Cerveró - Carlos Cortina"
            },
            "geometry": {
                "type": "Point",
                "coordinates": [
                    -0.389982155850781,
                    39.499247187993085
                ]
            }
        },
        {
            "type": "Feature",
            "properties": {
                "Number": "44",
                "Name": "44_AVDA. GRAL. URRUTIA",
                "Address": "General Urrutia - Av. de la Plata"
            },
            "geometry": {
                "type": "Point",
                "coordinates": [
                    -0.363105052261891,
                    39.456397052131265
                ]
            }
        },
        {
            "type": "Feature",
            "properties": {
                "Number": "16",
                "Name": "016_COLON I",
                "Address": "Colón"
            },
            "geometry": {
                "type": "Point",
                "coordinates": [
                    39.47006009581504,
                    60
                ]
            }
        },
        {
            "type": "Feature",
            "properties": {
                "Number": "45",
                "Name": "45_AVDA. GRAL. URRUTIA",
                "Address": "Hermanos Maristas - General Urrutia"
            },
            "geometry": {
                "type": "Point",
                "coordinates": [
                    -0.361946047377204,
                    39.45378704370325
                ]
            }
        },
        {
            "type": "Feature",
            "properties": {
                "Number": "125",
                "Name": "125_C/ MASQUEFA",
                "Address": "Masquefa"
            },
            "geometry": {
                "type": "Point",
                "coordinates": [
                    39.489661165707126,
                    42
                ]
            }
        },
        {
            "type": "Feature",
            "properties": {
                "Number": "187",
                "Name": "187_AVDA_AUSIAS_MARCH",
                "Address": "Ángel Villena - Ausias March"
            },
            "geometry": {
                "type": "Point",
                "coordinates": [
                    -0.368909065084874,
                    39.447928021676226
                ]
            }
        },
        {
            "type": "Feature",
            "properties": {
                "Number": "109",
                "Name": "109_AVDA. NARANJOS",
                "Address": "Naranjos - Ingeniero Fausto Elio"
            },
            "geometry": {
                "type": "Point",
                "coordinates": [
                    -0.333600974859012,
                    39.47678713041781
                ]
            }
        },
        {
            "type": "Feature",
            "properties": {
                "Number": "205",
                "Name": "205_CALLE_NICASIO_BENLLOCH",
                "Address": "Nicasio Benlloch - Amics dels Corpus"
            },
            "geometry": {
                "type": "Point",
                "coordinates": [
                    -0.393181160103781,
                    39.489255153267536
                ]
            }
        },
        {
            "type": "Feature",
            "properties": {
                "Number": "133",
                "Name": "133_C/ ALFAMBRA",
                "Address": "Alfambra - Poeta Monmeneu"
            },
            "geometry": {
                "type": "Point",
                "coordinates": [
                    -0.375973105008805,
                    39.48272413676827
                ]
            }
        },
        {
            "type": "Feature",
            "properties": {
                "Number": "156",
                "Name": "156_C/ CUBA",
                "Address": "Puerto Rico - Cuba"
            },
            "geometry": {
                "type": "Point",
                "coordinates": [
                    -0.376436094678165,
                    39.460932063112466
                ]
            }
        },
        {
            "type": "Feature",
            "properties": {
                "Number": "162",
                "Name": "162_PZA. ARMADA ESPAÑOLA",
                "Address": "Armada Española - Mariano Cuber"
            },
            "geometry": {
                "type": "Point",
                "coordinates": [
                    -0.32988595660341,
                    39.46357208709311
                ]
            }
        },
        {
            "type": "Feature",
            "properties": {
                "Number": "206",
                "Name": "206_CALLE_PERIODISTA_GIL_SUMBIELA",
                "Address": "Periodista Gil Sumbiela - Poeta Serrano Clavero"
            },
            "geometry": {
                "type": "Point",
                "coordinates": [
                    -0.389098149691761,
                    39.49268016612935
                ]
            }
        },
        {
            "type": "Feature",
            "properties": {
                "Number": "214",
                "Name": "214_CALLE_SANTA_CRUZ_DE_TENERIFE_ESQ_CALLE_LLOMBA",
                "Address": "Santa Cruz de Tenerife"
            },
            "geometry": {
                "type": "Point",
                "coordinates": [
                    39.46490006867376,
                    21
                ]
            }
        },
        {
            "type": "Feature",
            "properties": {
                "Number": "40",
                "Name": "40_CALLE_BARCAS_FRENTE _TEATRO_PRINCIPAL",
                "Address": "Barcas"
            },
            "geometry": {
                "type": "Point",
                "coordinates": [
                    39.470434095658966,
                    11
                ]
            }
        },
        {
            "type": "Feature",
            "properties": {
                "Number": "219",
                "Name": "219_CALLE_CASTAN_TOBEÑAS_ESQ_CALLE_VELAZQUEZ",
                "Address": "Castán Tobeñas - Rincon de Ademuz"
            },
            "geometry": {
                "type": "Point",
                "coordinates": [
                    -0.402984180655052,
                    39.47273109436028
                ]
            }
        },
        {
            "type": "Feature",
            "properties": {
                "Number": "59",
                "Name": "059_AVDA. DE BALEARES I",
                "Address": "Baleares - Río Escalona"
            },
            "geometry": {
                "type": "Point",
                "coordinates": [
                    -0.354640030484729,
                    39.46305607733176
                ]
            }
        },
        {
            "type": "Feature",
            "properties": {
                "Number": "91",
                "Name": "091_CALLE_GRABADOR_JORDAN_46_PLAZA_ESCULTOR_PASTOR",
                "Address": "Grabador Jordan - Escultor Pastor"
            },
            "geometry": {
                "type": "Point",
                "coordinates": [
                    -0.367664059275921,
                    39.444093009140374
                ]
            }
        },
        {
            "type": "Feature",
            "properties": {
                "Number": "4",
                "Name": "004_PLAZA_DE_LA_VIRGEN_CALLE_BAILIA",
                "Address": "Plaza de la Virgen - Bailía"
            },
            "geometry": {
                "type": "Point",
                "coordinates": [
                    -0.375433100164395,
                    39.476715116676885
                ]
            }
        },
        {
            "type": "Feature",
            "properties": {
                "Number": "171",
                "Name": "171_CALLE GRAN CANARIA",
                "Address": "Gran Canaria - Ingeniero Manuel Maese"
            },
            "geometry": {
                "type": "Point",
                "coordinates": [
                    -0.329098964737767,
                    39.48302815289556
                ]
            }
        },
        {
            "type": "Feature",
            "properties": {
                "Number": "117",
                "Name": "117_PRIMADO REIG",
                "Address": "Gascó Oliag - Primado Reig"
            },
            "geometry": {
                "type": "Point",
                "coordinates": [
                    -0.357156046729095,
                    39.47921913101099
                ]
            }
        },
        {
            "type": "Feature",
            "properties": {
                "Number": "22",
                "Name": "022_JUAN_LLORENS_57",
                "Address": "Angel Guimerá - Juan Llorens"
            },
            "geometry": {
                "type": "Point",
                "coordinates": [
                    -0.388444135439494,
                    39.469755089002845
                ]
            }
        },
        {
            "type": "Feature",
            "properties": {
                "Number": "55",
                "Name": "55_AVDA. DE FRANCIA",
                "Address": "Francia - Pintor Maella"
            },
            "geometry": {
                "type": "Point",
                "coordinates": [
                    -0.348777010892994,
                    39.45931106660426
                ]
            }
        },
        {
            "type": "Feature",
            "properties": {
                "Number": "14",
                "Name": "014_BARÓN CARCER",
                "Address": "Huesca - Barón de Cárcer"
            },
            "geometry": {
                "type": "Point",
                "coordinates": [
                    -0.379815109120643,
                    39.46893508902061
                ]
            }
        },
        {
            "type": "Feature",
            "properties": {
                "Number": "89",
                "Name": "89_AVDA. BLASCO IBAÑEZ",
                "Address": "Blasco Ibañez"
            },
            "geometry": {
                "type": "Point",
                "coordinates": [
                    39.47777012539991,
                    23
                ]
            }
        },
        {
            "type": "Feature",
            "properties": {
                "Number": "80",
                "Name": "080_AMADEO SAVOIA",
                "Address": "Amadeo de Saboya (frente Ayuntamiento)"
            },
            "geometry": {
                "type": "Point",
                "coordinates": [
                    -0.362389059448826,
                    39.47371011075012
                ]
            }
        },
        {
            "type": "Feature",
            "properties": {
                "Number": "212",
                "Name": "212_CALLE_FRAY_JUNÍPERO_SERRA_ESQ_CALLE_TORRENTE",
                "Address": "Fray Junípero Serra - Torrente"
            },
            "geometry": {
                "type": "Point",
                "coordinates": [
                    -0.40048716710112,
                    39.461452057092146
                ]
            }
        },
        {
            "type": "Feature",
            "properties": {
                "Number": "78",
                "Name": "078_AVDA. ARAGÓN I",
                "Address": "Aragón - Vicente Sancho Tello"
            },
            "geometry": {
                "type": "Point",
                "coordinates": [
                    -0.358779046585651,
                    39.469913099113434
                ]
            }
        },
        {
            "type": "Feature",
            "properties": {
                "Number": "176",
                "Name": "176_CAMINO_DE_MONCADA_52",
                "Address": "Cno. Moncada - Pedro Patricio Mey"
            },
            "geometry": {
                "type": "Point",
                "coordinates": [
                    -0.378944118876901,
                    39.491985167042394
                ]
            }
        },
        {
            "type": "Feature",
            "properties": {
                "Number": "23",
                "Name": "023_GRAN_VIA_FERNANDO_EL_CATOLICO",
                "Address": "Fernando el Católico - Erudito Orellana"
            },
            "geometry": {
                "type": "Point",
                "coordinates": [
                    -0.3862691299059,
                    39.47159609591605
                ]
            }
        },
        {
            "type": "Feature",
            "properties": {
                "Number": "139",
                "Name": "139_C/ REUS",
                "Address": "Reus - Alquería de la Estrella"
            },
            "geometry": {
                "type": "Point",
                "coordinates": [
                    -0.382964127549696,
                    39.48567414446925
                ]
            }
        },
        {
            "type": "Feature",
            "properties": {
                "Number": "69",
                "Name": "069_AVDA. DEL PUERTO",
                "Address": "Av. Puerto - Serrería"
            },
            "geometry": {
                "type": "Point",
                "coordinates": [
                    -0.338811982446624,
                    39.46192007863096
                ]
            }
        },
        {
            "type": "Feature",
            "properties": {
                "Number": "29",
                "Name": "029_PLAZA AMERICA",
                "Address": "Plaza América - Cirilo Amorós - Sorní"
            },
            "geometry": {
                "type": "Point",
                "coordinates": [
                    -0.36539006649012,
                    39.47008009754055
                ]
            }
        },
        {
            "type": "Feature",
            "properties": {
                "Number": "208",
                "Name": "208_CALLE_CARTEROS_ESQ_CALLE_MOSSEN_FEBRER",
                "Address": "Carteros - Mossen Febrer"
            },
            "geometry": {
                "type": "Point",
                "coordinates": [
                    -0.38866912636635,
                    39.451660027860314
                ]
            }
        },
        {
            "type": "Feature",
            "properties": {
                "Number": "50",
                "Name": "50_AVDA. AUTOPISTA DEL SALER",
                "Address": "Autopista del Saler - Antonio Ferrandis (C.C. El Saler)"
            },
            "geometry": {
                "type": "Point",
                "coordinates": [
                    -0.352950020141597,
                    39.453286044933414
                ]
            }
        },
        {
            "type": "Feature",
            "properties": {
                "Number": "250",
                "Name": "250_AVDA_TRES_CRUCES_PIO_XI",
                "Address": "Tres Cruces - Pio XI"
            },
            "geometry": {
                "type": "Point",
                "coordinates": [
                    -0.400570164438297,
                    39.456045038810714
                ]
            }
        },
        {
            "type": "Feature",
            "properties": {
                "Number": "2",
                "Name": "002_CALLE_SALVADOR_GINER_CALLE_MUSEO",
                "Address": "Salvador Giner - C. Museo"
            },
            "geometry": {
                "type": "Point",
                "coordinates": [
                    -0.379839115061075,
                    39.4798571258551
                ]
            }
        },
        {
            "type": "Feature",
            "properties": {
                "Number": "42",
                "Name": "42_AVDA. DE LA PLATA",
                "Address": "Av. de la Plata (Museo Fallero)"
            },
            "geometry": {
                "type": "Point",
                "coordinates": [
                    -0.358749040474832,
                    39.45874906147631
                ]
            }
        },
        {
            "type": "Feature",
            "properties": {
                "Number": "210",
                "Name": "210_CALLE_CAMPOS_CRESPO_ESQ_CALLE_JUAN_DE_GARAY",
                "Address": "Campos Crespo - Juan de Garay"
            },
            "geometry": {
                "type": "Point",
                "coordinates": [
                    -0.396807152864784,
                    39.45552103825903
                ]
            }
        },
        {
            "type": "Feature",
            "properties": {
                "Number": "202",
                "Name": "202_PASEO_PECHINA",
                "Address": "Pechina - Teruel"
            },
            "geometry": {
                "type": "Point",
                "coordinates": [
                    -0.393425153835504,
                    39.4761901091111
                ]
            }
        },
        {
            "type": "Feature",
            "properties": {
                "Number": "236",
                "Name": "236_RIO_SEGRE_RAFAEL_COMPANY",
                "Address": "Rio Segre - Rafael Company"
            },
            "geometry": {
                "type": "Point",
                "coordinates": [
                    -0.382369130775341,
                    39.495034176224834
                ]
            }
        },
        {
            "type": "Feature",
            "properties": {
                "Number": "135",
                "Name": "135_AVDA. CONSTITUCIÓN",
                "Address": "Constitución - Reus"
            },
            "geometry": {
                "type": "Point",
                "coordinates": [
                    -0.378592114439778,
                    39.48567014586083
                ]
            }
        },
        {
            "type": "Feature",
            "properties": {
                "Number": "251",
                "Name": "251_ARQUITECTO_SEGURA_LAGO_CAMINO_NUEVO_DE_PICAÑA",
                "Address": "Arquitecto Segura del Lago - Camino Nuevo de Picaña"
            },
            "geometry": {
                "type": "Point",
                "coordinates": [
                    -0.404504176110588,
                    39.45579803670432
                ]
            }
        },
        {
            "type": "Feature",
            "properties": {
                "Number": "157",
                "Name": "157_AVENIDA_PEREZ_GALDOS",
                "Address": "Pérez Galdós - Marqués de Zenete"
            },
            "geometry": {
                "type": "Point",
                "coordinates": [
                    -0.387457129393968,
                    39.464020069969
                ]
            }
        },
        {
            "type": "Feature",
            "properties": {
                "Number": "65",
                "Name": "065_AVDA. DEL PUERTO III",
                "Address": "Av. Puerto - Doctor Manuel Candela"
            },
            "geometry": {
                "type": "Point",
                "coordinates": [
                    -0.350928020671138,
                    39.46548408671991
                ]
            }
        },
        {
            "type": "Feature",
            "properties": {
                "Number": "197",
                "Name": "197_CALLE_FONTANARS_DELS_AFORINS",
                "Address": "Fontanars dels Aforins - Jacinto Labaila"
            },
            "geometry": {
                "type": "Point",
                "coordinates": [
                    -0.392424141132886,
                    39.458152048558595
                ]
            }
        },
        {
            "type": "Feature",
            "properties": {
                "Number": "88",
                "Name": "088_AVDA. BLASCO IBAÑEZ 3",
                "Address": "Blasco Ibañez"
            },
            "geometry": {
                "type": "Point",
                "coordinates": [
                    39.47748012383395,
                    28
                ]
            }
        },
        {
            "type": "Feature",
            "properties": {
                "Number": "225",
                "Name": "225_CALLE_PADRE_BARRANCO_DESPUES_CALLE_BENIFAIRO",
                "Address": "Padre Barranco - Carlos Ruano Llopis (Pintor)"
            },
            "geometry": {
                "type": "Point",
                "coordinates": [
                    -0.401233183623003,
                    39.48807514670377
                ]
            }
        },
        {
            "type": "Feature",
            "properties": {
                "Number": "33",
                "Name": "033_GRAN_VIA_GERMANIAS_ESQ_CALLE_RUZAFA",
                "Address": "Germanías - Ruzafa"
            },
            "geometry": {
                "type": "Point",
                "coordinates": [
                    -0.37408108969372,
                    39.464786076876194
                ]
            }
        },
        {
            "type": "Feature",
            "properties": {
                "Number": "85",
                "Name": "085_AVDA_BLASCO IBAÑEZ 1",
                "Address": "Blasco Ibañez - Jaime Roig"
            },
            "geometry": {
                "type": "Point",
                "coordinates": [
                    -0.364806069768998,
                    39.47943212926333
                ]
            }
        },
        {
            "type": "Feature",
            "properties": {
                "Number": "13",
                "Name": "013_PZA. ALFONSO MAGNANIMO_CON_CALLE_LA_NAVE",
                "Address": "Alfonso el Magnánimo - Nave"
            },
            "geometry": {
                "type": "Point",
                "coordinates": [
                    -0.370965084251257,
                    39.472030102316914
                ]
            }
        },
        {
            "type": "Feature",
            "properties": {
                "Number": "132",
                "Name": "132_C/ RUAYA",
                "Address": "Platero Suárez - Milagrosa"
            },
            "geometry": {
                "type": "Point",
                "coordinates": [
                    -0.373525099027208,
                    39.48525414608695
                ]
            }
        },
        {
            "type": "Feature",
            "properties": {
                "Number": "194",
                "Name": "194_ESTACION_AVE_JOAQUIN_SOROLLA",
                "Address": "Estación AVE Joaquín Sorolla"
            },
            "geometry": {
                "type": "Point",
                "coordinates": [
                    -0.381065108588874,
                    39.46098606179716
                ]
            }
        },
        {
            "type": "Feature",
            "properties": {
                "Number": "87",
                "Name": "87_AVDA BLASCO IBAÑEZ 2",
                "Address": "Blasco Ibañez - Doctor Gómez Ferrer (Clínico)"
            },
            "geometry": {
                "type": "Point",
                "coordinates": [
                    -0.361971060764256,
                    39.47848612698768
                ]
            }
        },
        {
            "type": "Feature",
            "properties": {
                "Number": "223",
                "Name": "223_CALLE_VALLE_BALLESTERA_ESQ_PLAZA_POLICIA_LOCAL",
                "Address": "Valle de la Ballestera - Hospital Nueve de Octubre"
            },
            "geometry": {
                "type": "Point",
                "coordinates": [
                    -0.40127817864509,
                    39.47852611446744
                ]
            }
        },
        {
            "type": "Feature",
            "properties": {
                "Number": "9",
                "Name": "009_PLAZA_TETUAN_4",
                "Address": "Plaza de Tetuán"
            },
            "geometry": {
                "type": "Point",
                "coordinates": [
                    -0.370021082654504,
                    39.474323110354575
                ]
            }
        },
        {
            "type": "Feature",
            "properties": {
                "Number": "30",
                "Name": "030_CIRILO AMOROS",
                "Address": "Cirilo Amorós - Jorge Juan (Mercado Colón)"
            },
            "geometry": {
                "type": "Point",
                "coordinates": [
                    -0.368590075268948,
                    39.468569091411034
                ]
            }
        },
        {
            "type": "Feature",
            "properties": {
                "Number": "266",
                "Name": "266_PLANA_ALTA_ESQ_AVDA_MAESTRO_RODRIGO",
                "Address": "Canal de Navarrés - Maestro Rodrigo"
            },
            "geometry": {
                "type": "Point",
                "coordinates": [
                    -0.406462200475517,
                    39.490257152389816
                ]
            }
        },
        {
            "type": "Feature",
            "properties": {
                "Number": "95",
                "Name": "95_AVDA. DE LOS NARANJOS",
                "Address": "Naranjos (Magisterio)"
            },
            "geometry": {
                "type": "Point",
                "coordinates": [
                    -0.34621001424835,
                    39.479803136509446
                ]
            }
        },
        {
            "type": "Feature",
            "properties": {
                "Number": "62",
                "Name": "062_MENORCA",
                "Address": "Menorca - Baleares"
            },
            "geometry": {
                "type": "Point",
                "coordinates": [
                    -0.342242991568314,
                    39.45977907030124
                ]
            }
        },
        {
            "type": "Feature",
            "properties": {
                "Number": "144",
                "Name": "144_CALLE_MARQUES_DE_SAN_JUAN",
                "Address": "Marqués de San Juan - Diputat Lluís Lucía"
            },
            "geometry": {
                "type": "Point",
                "coordinates": [
                    -0.395571161644053,
                    39.478747117048464
                ]
            }
        },
        {
            "type": "Feature",
            "properties": {
                "Number": "189",
                "Name": "189_HOSPITAL_NUEVA_FE",
                "Address": "Hospital Nueva Fe (administración)"
            },
            "geometry": {
                "type": "Point",
                "coordinates": [
                    -0.37599308454911,
                    39.4446390082756
                ]
            }
        },
        {
            "type": "Feature",
            "properties": {
                "Number": "129",
                "Name": "129_C_ALMAZORA",
                "Address": "Almazora - Benimuslem"
            },
            "geometry": {
                "type": "Point",
                "coordinates": [
                    -0.37003608893869,
                    39.485943149532034
                ]
            }
        },
        {
            "type": "Feature",
            "properties": {
                "Number": "181",
                "Name": "181_CALLE_DEL_SALINAR",
                "Address": "Zapadores"
            },
            "geometry": {
                "type": "Point",
                "coordinates": [
                    39.45796705574948,
                    23
                ]
            }
        },
        {
            "type": "Feature",
            "properties": {
                "Number": "83",
                "Name": "83_PZA. DE LA LEGIÓN ESPAÑOLA",
                "Address": "General Elio - Llano del Real"
            },
            "geometry": {
                "type": "Point",
                "coordinates": [
                    -0.367061075518166,
                    39.47755312220108
                ]
            }
        },
        {
            "type": "Feature",
            "properties": {
                "Number": "149",
                "Name": "149_AVDA. PERIS Y VALERO",
                "Address": "Peris y Valero - Salamanca"
            },
            "geometry": {
                "type": "Point",
                "coordinates": [
                    -0.361886052119026,
                    39.462902074466406
                ]
            }
        },
        {
            "type": "Feature",
            "properties": {
                "Number": "10",
                "Name": "010_CALLE_DEL_HOSPITAL_FRENTE_CALLE_HORNO_DEL_HOSP",
                "Address": "Hospital - Horno del Hospital"
            },
            "geometry": {
                "type": "Point",
                "coordinates": [
                    -0.382701118769287,
                    39.47078409432719
                ]
            }
        },
        {
            "type": "Feature",
            "properties": {
                "Number": "60",
                "Name": "060_AVDA.BALEARES II",
                "Address": "Baleares - Lebón"
            },
            "geometry": {
                "type": "Point",
                "coordinates": [
                    -0.351867021712218,
                    39.462199075340266
                ]
            }
        },
        {
            "type": "Feature",
            "properties": {
                "Number": "229",
                "Name": "229_CALLE_AITANA_ESQ_AVDA_BURJASSOT",
                "Address": "Aitana - Florista"
            },
            "geometry": {
                "type": "Point",
                "coordinates": [
                    -0.394897167291038,
                    39.49307216559276
                ]
            }
        },
        {
            "type": "Feature",
            "properties": {
                "Number": "245",
                "Name": "245_9_DE_OCTUBRE_CIEZA",
                "Address": "Nueve de Octubre - Cieza"
            },
            "geometry": {
                "type": "Point",
                "coordinates": [
                    -0.405642188252898,
                    39.47202809113153
                ]
            }
        },
        {
            "type": "Feature",
            "properties": {
                "Number": "270",
                "Name": "270_CALLE_NINOT_ESQ_PZA_REGINO_MAS",
                "Address": "Ninot - Regino Mas"
            },
            "geometry": {
                "type": "Point",
                "coordinates": [
                    -0.392980165265021,
                    39.50004318971825
                ]
            }
        },
        {
            "type": "Feature",
            "properties": {
                "Number": "38",
                "Name": "38_AVDA. PERIS Y VALERO",
                "Address": "Peris y Valero - Cabo Jubi"
            },
            "geometry": {
                "type": "Point",
                "coordinates": [
                    -0.370340076012569,
                    39.459369828677254
                ]
            }
        },
        {
            "type": "Feature",
            "properties": {
                "Number": "252",
                "Name": "252_DE_LOS_GREMIOS_CAMPOS_CRESPO",
                "Address": "Dels Gremis - Campos Crespo"
            },
            "geometry": {
                "type": "Point",
                "coordinates": [
                    -0.4036651706049,
                    39.450256018261534
                ]
            }
        },
        {
            "type": "Feature",
            "properties": {
                "Number": "192",
                "Name": "192_CTRA_MALILLA",
                "Address": "Cra. Malilla - Oltá"
            },
            "geometry": {
                "type": "Point",
                "coordinates": [
                    -0.378805097289263,
                    39.45260503424732
                ]
            }
        },
        {
            "type": "Feature",
            "properties": {
                "Number": "153",
                "Name": "153_C/ LLANO DE ZAIDA",
                "Address": "Llano de la Zaidía - Doctor Olóriz"
            },
            "geometry": {
                "type": "Point",
                "coordinates": [
                    -0.380263118087985,
                    39.48313013675752
                ]
            }
        },
        {
            "type": "Feature",
            "properties": {
                "Number": "224",
                "Name": "224_PLAZA_JOSE_MONFORTE_TUDELA_ESQ_CALLE_HERNANDEZ",
                "Address": "Jorge Comin (Metge) - Terrateig"
            },
            "geometry": {
                "type": "Point",
                "coordinates": [
                    -0.403679186925212,
                    39.480536120478945
                ]
            }
        },
        {
            "type": "Feature",
            "properties": {
                "Number": "113",
                "Name": "113_ETS CAMINOS",
                "Address": "UPV Caminos"
            },
            "geometry": {
                "type": "Point",
                "coordinates": [
                    -0.343702007510602,
                    39.48124414217441
                ]
            }
        },
        {
            "type": "Feature",
            "properties": {
                "Number": "142",
                "Name": "142_C/ GREGORIO GEA (PEATONAL)",
                "Address": "Gregorio Gea - Profesor Beltrán Báguena"
            },
            "geometry": {
                "type": "Point",
                "coordinates": [
                    -0.389750145869399,
                    39.48188812951767
                ]
            }
        },
        {
            "type": "Feature",
            "properties": {
                "Number": "269",
                "Name": "269_CAMPAMENTO_81",
                "Address": "Campamento"
            },
            "geometry": {
                "type": "Point",
                "coordinates": [
                    39.499875178486775,
                    81
                ]
            }
        },
        {
            "type": "Feature",
            "properties": {
                "Number": "103",
                "Name": "103_RUBEN DARIO",
                "Address": "Rubén Darío - Plaza Fray Luis Colomer"
            },
            "geometry": {
                "type": "Point",
                "coordinates": [
                    -0.35246203223541,
                    39.47842112983494
                ]
            }
        },
        {
            "type": "Feature",
            "properties": {
                "Number": "11",
                "Name": "011_PZA_AYTO_CON_CALLE_COTANDA",
                "Address": "Plaza Ayuntamiento - Cotanda"
            },
            "geometry": {
                "type": "Point",
                "coordinates": [
                    -0.376875101498657,
                    39.471154097455006
                ]
            }
        },
        {
            "type": "Feature",
            "properties": {
                "Number": "242",
                "Name": "242_LA_SAFOR_AVDA_MAESTRO_RODRIGO",
                "Address": "La Safor - Maestro Rodrigo"
            },
            "geometry": {
                "type": "Point",
                "coordinates": [
                    -0.404288192680299,
                    39.48787514504915
                ]
            }
        },
        {
            "type": "Feature",
            "properties": {
                "Number": "222",
                "Name": "222_AVDA_MAESTRO_RODRIGO_ESQ_AVDA_MANUEL_DE_FALLA",
                "Address": "Maestro Rodrigo - Manuel de Falla"
            },
            "geometry": {
                "type": "Point",
                "coordinates": [
                    -0.397373166037864,
                    39.47686111010473
                ]
            }
        },
        {
            "type": "Feature",
            "properties": {
                "Number": "93",
                "Name": "93_AVADA_BLASCO_IBAÑEZ_DESP_C_POETA_DURAN_TORTAJAD",
                "Address": "Blasco Ibañez - Poeta Durán Tortajada"
            },
            "geometry": {
                "type": "Point",
                "coordinates": [
                    -0.34390000326249,
                    39.47225011180076
                ]
            }
        },
        {
            "type": "Feature",
            "properties": {
                "Number": "57",
                "Name": "057_CALLE PINTOR MONLEON",
                "Address": "Alameda - Pintor Monleón"
            },
            "geometry": {
                "type": "Point",
                "coordinates": [
                    -0.35834704234339,
                    39.46444408081199
                ]
            }
        },
        {
            "type": "Feature",
            "properties": {
                "Number": "253",
                "Name": "253_PLAZA_JOSE_MELIA_CASTELLO_CAMPOS_CRESPO",
                "Address": "José Meliá Castelló - Campos Crespo"
            },
            "geometry": {
                "type": "Point",
                "coordinates": [
                    -0.401192164498328,
                    39.452694027294896
                ]
            }
        },
        {
            "type": "Feature",
            "properties": {
                "Number": "272",
                "Name": "272_VICENTE_LA_RODA_C_INGENIERO_FAUSTO_ELIO",
                "Address": "Vicente la Roda - Ingeniero Fausto Elio"
            },
            "geometry": {
                "type": "Point",
                "coordinates": [
                    -0.332280972954351,
                    39.480591143659446
                ]
            }
        },
        {
            "type": "Feature",
            "properties": {
                "Number": "126",
                "Name": "126_C/ ALFAUIR",
                "Address": "Alfahuir - José Chabas Bordehore"
            },
            "geometry": {
                "type": "Point",
                "coordinates": [
                    -0.36019506326505,
                    39.493066176705305
                ]
            }
        },
        {
            "type": "Feature",
            "properties": {
                "Number": "195",
                "Name": "195_CALLE_GIORGETA",
                "Address": "Giorgeta - Roig de Corella"
            },
            "geometry": {
                "type": "Point",
                "coordinates": [
                    -0.384372117626406,
                    39.45935205521343
                ]
            }
        },
        {
            "type": "Feature",
            "properties": {
                "Number": "61",
                "Name": "061_VICENTE VIDAL",
                "Address": "Vicent Vidal - Pintor Maella"
            },
            "geometry": {
                "type": "Point",
                "coordinates": [
                    -0.347921009381426,
                    39.46126107345635
                ]
            }
        },
        {
            "type": "Feature",
            "properties": {
                "Number": "54",
                "Name": "54_PASEO ALAMEDA",
                "Address": "Plaza de Europa"
            },
            "geometry": {
                "type": "Point",
                "coordinates": [
                    -0.352781023126671,
                    39.45974606677287
                ]
            }
        },
        {
            "type": "Feature",
            "properties": {
                "Number": "163",
                "Name": "163_PASEO NEPTUNO",
                "Address": "Paseo Neptuno 32-34"
            },
            "geometry": {
                "type": "Point",
                "coordinates": [
                    -0.323491937905993,
                    39.464405091973795
                ]
            }
        },
        {
            "type": "Feature",
            "properties": {
                "Number": "244",
                "Name": "244_AVDA_PIO_BAROJA_VALLE_DE_LA_BALLESTERA",
                "Address": "Valle de la Ballestera - Pio Baroja"
            },
            "geometry": {
                "type": "Point",
                "coordinates": [
                    -0.406227193465013,
                    39.47847411270088
                ]
            }
        },
        {
            "type": "Feature",
            "properties": {
                "Number": "75",
                "Name": "075_CAMPOAMOR I",
                "Address": "República Argentina - Campoamor"
            },
            "geometry": {
                "type": "Point",
                "coordinates": [
                    -0.351792026815861,
                    39.472081108680385
                ]
            }
        },
        {
            "type": "Feature",
            "properties": {
                "Number": "276",
                "Name": "276_EDIFICIO_VELES_E_VENTS",
                "Address": "Veles e Vents"
            },
            "geometry": {
                "type": "Point",
                "coordinates": [
                    -0.323855937664754,
                    39.4619430835605
                ]
            }
        },
        {
            "type": "Feature",
            "properties": {
                "Number": "124",
                "Name": "124_C/ AZAGADOR DE ALBORAYA",
                "Address": "Azagador de Alboraya - Dolores Marqués"
            },
            "geometry": {
                "type": "Point",
                "coordinates": [
                    -0.362046066347782,
                    39.48846916061659
                ]
            }
        },
        {
            "type": "Feature",
            "properties": {
                "Number": "267",
                "Name": "267_C_BENIFERRI_VICENTE_TOMAS_MARTI",
                "Address": "Beniferri - Vicent Tomás Martí"
            },
            "geometry": {
                "type": "Point",
                "coordinates": [
                    -0.406020201221407,
                    39.4941361656198
                ]
            }
        },
        {
            "type": "Feature",
            "properties": {
                "Number": "154",
                "Name": "154_PESCADORES",
                "Address": "Pescadores - Progreso"
            },
            "geometry": {
                "type": "Point",
                "coordinates": [
                    -0.329644959268791,
                    39.46984410830488
                ]
            }
        },
        {
            "type": "Feature",
            "properties": {
                "Number": "259",
                "Name": "259_CALLE_PIO_IX_POLIDEPORTIVO_RAMBLETA",
                "Address": "Pio IX - Músico Cabanilles"
            },
            "geometry": {
                "type": "Point",
                "coordinates": [
                    -0.393106136312086,
                    39.44542800538199
                ]
            }
        },
        {
            "type": "Feature",
            "properties": {
                "Number": "86",
                "Name": "86_AVDA_GASPAR_AGUILAR_ESQ_VICENTE_PARRA",
                "Address": "Gaspar Aguilar - Vicente Parra"
            },
            "geometry": {
                "type": "Point",
                "coordinates": [
                    -0.391284136125771,
                    39.45520803898995
                ]
            }
        },
        {
            "type": "Feature",
            "properties": {
                "Number": "73",
                "Name": "073_JERONIMO MONSORIU",
                "Address": "Jerónimo Monsoriu - Industria"
            },
            "geometry": {
                "type": "Point",
                "coordinates": [
                    -0.342969997228533,
                    39.46622709180114
                ]
            }
        },